{
  "update_time": "2025-10-09T19:57:06.067352",
  "city_focus": "南京市",
  "total_sensors": 47,
  "abnormal_sensors": 5,
  "average_aqi": 80.8,
  "sensors": [
    {
      "id": "NJ_014",
      "city": "Nanjing",
      "city_chinese": "南京",
      "province": "江苏省",
      "district": "鼓楼区",
      "location": "鼓楼区-1号站点",
      "pm25": 66.9,
      "aqi": 110,
      "temperature": 20.8,
      "humidity": 60,
      "wind_speed": 0.9,
      "status": "异常",
      "latitude": 32.058887,
      "longitude": 118.775254,
      "lastUpdate": "2025-10-09T19:57:06.066691",
      "data_source": "Nanjing_Enhanced_Network"
    },
    {
      "id": "NJ_002",
      "city": "Nanjing",
      "city_chinese": "南京",
      "province": "江苏省",
      "district": "玄武区",
      "location": "玄武区-2号站点",
      "pm25": 65.2,
      "aqi": 106,
      "temperature": 19.0,
      "humidity": 57,
      "wind_speed": 0.6,
      "status": "异常",
      "latitude": 32.052947,
      "longitude": 118.802624,
      "lastUpdate": "2025-10-09T19:57:06.065870",
      "data_source": "Nanjing_Enhanced_Network"
    },
    {
      "id": "NJ_024",
      "city": "Nanjing",
      "city_chinese": "南京",
      "province": "江苏省",
      "district": "栖霞区",
      "location": "栖霞区-3号站点",
      "pm25": 58.2,
      "aqi": 104,
      "temperature": 16.2,
      "humidity": 59,
      "wind_speed": 2.6,
      "status": "异常",
      "latitude": 32.104424,
      "longitude": 118.897084,
      "lastUpdate": "2025-10-09T19:57:06.066750",
      "data_source": "Nanjing_Enhanced_Network"
    },
    {
      "id": "NJ_006",
      "city": "Nanjing",
      "city_chinese": "南京",
      "province": "江苏省",
      "district": "秦淮区",
      "location": "秦淮区-2号站点",
      "pm25": 60.9,
      "aqi": 103,
      "temperature": 20.2,
      "humidity": 58,
      "wind_speed": 3.9,
      "status": "异常",
      "latitude": 32.03771,
      "longitude": 118.79048,
      "lastUpdate": "2025-10-09T19:57:06.065894",
      "data_source": "Nanjing_Enhanced_Network"
    },
    {
      "id": "NJ_025",
      "city": "Nanjing",
      "city_chinese": "南京",
      "province": "江苏省",
      "district": "栖霞区",
      "location": "栖霞区-4号站点",
      "pm25": 59.3,
      "aqi": 101,
      "temperature": 17.3,
      "humidity": 61,
      "wind_speed": 3.2,
      "status": "异常",
      "latitude": 32.094885,
      "longitude": 118.912503,
      "lastUpdate": "2025-10-09T19:57:06.066754",
      "data_source": "Nanjing_Enhanced_Network"
    },
    {
      "id": "NJ_028",
      "city": "Nanjing",
      "city_chinese": "南京",
      "province": "江苏省",
      "district": "雨花台区",
      "location": "雨花台区-3号站点",
      "pm25": 56.6,
      "aqi": 98,
      "temperature": 16.2,
      "humidity": 69,
      "wind_speed": 3.7,
      "status": "正常",
      "latitude": 31.984623,
      "longitude": 118.77896,
      "lastUpdate": "2025-10-09T19:57:06.066768",
      "data_source": "Nanjing_Enhanced_Network"
    },
    {
      "id": "NJ_023",
      "city": "Nanjing",
      "city_chinese": "南京",
      "province": "江苏省",
      "district": "栖霞区",
      "location": "栖霞区-2号站点",
      "pm25": 58.0,
      "aqi": 97,
      "temperature": 19.2,
      "humidity": 69,
      "wind_speed": 3.4,
      "status": "正常",
      "latitude": 32.091198,
      "longitude": 118.904401,
      "lastUpdate": "2025-10-09T19:57:06.066746",
      "data_source": "Nanjing_Enhanced_Network"
    },
    {
      "id": "NJ_008",
      "city": "Nanjing",
      "city_chinese": "南京",
      "province": "江苏省",
      "district": "秦淮区",
      "location": "秦淮区-4号站点",
      "pm25": 54.9,
      "aqi": 96,
      "temperature": 17.1,
      "humidity": 71,
      "wind_speed": 4.0,
      "status": "正常",
      "latitude": 32.027299,
      "longitude": 118.804715,
      "lastUpdate": "2025-10-09T19:57:06.065902",
      "data_source": "Nanjing_Enhanced_Network"
    },
    {
      "id": "NJ_016",
      "city": "Nanjing",
      "city_chinese": "南京",
      "province": "江苏省",
      "district": "鼓楼区",
      "location": "鼓楼区-3号站点",
      "pm25": 56.8,
      "aqi": 95,
      "temperature": 19.7,
      "humidity": 63,
      "wind_speed": 1.4,
      "status": "正常",
      "latitude": 32.068437,
      "longitude": 118.777397,
      "lastUpdate": "2025-10-09T19:57:06.066705",
      "data_source": "Nanjing_Enhanced_Network"
    },
    {
      "id": "NJ_003",
      "city": "Nanjing",
      "city_chinese": "南京",
      "province": "江苏省",
      "district": "玄武区",
      "location": "玄武区-3号站点",
      "pm25": 60.9,
      "aqi": 94,
      "temperature": 17.2,
      "humidity": 69,
      "wind_speed": 2.3,
      "status": "正常",
      "latitude": 32.056588,
      "longitude": 118.801966,
      "lastUpdate": "2025-10-09T19:57:06.065876",
      "data_source": "Nanjing_Enhanced_Network"
    },
    {
      "id": "NJ_029",
      "city": "Nanjing",
      "city_chinese": "南京",
      "province": "江苏省",
      "district": "雨花台区",
      "location": "雨花台区-4号站点",
      "pm25": 52.2,
      "aqi": 94,
      "temperature": 16.3,
      "humidity": 65,
      "wind_speed": 3.1,
      "status": "正常",
      "latitude": 31.999663,
      "longitude": 118.789431,
      "lastUpdate": "2025-10-09T19:57:06.066772",
      "data_source": "Nanjing_Enhanced_Network"
    },
    {
      "id": "NJ_030",
      "city": "Nanjing",
      "city_chinese": "南京",
      "province": "江苏省",
      "district": "江宁区",
      "location": "江宁区-1号站点",
      "pm25": 56.8,
      "aqi": 94,
      "temperature": 18.2,
      "humidity": 56,
      "wind_speed": 3.6,
      "status": "正常",
      "latitude": 31.956231,
      "longitude": 118.839951,
      "lastUpdate": "2025-10-09T19:57:06.066779",
      "data_source": "Nanjing_Enhanced_Network"
    },
    {
      "id": "NJ_004",
      "city": "Nanjing",
      "city_chinese": "南京",
      "province": "江苏省",
      "district": "玄武区",
      "location": "玄武区-4号站点",
      "pm25": 52.2,
      "aqi": 91,
      "temperature": 18.2,
      "humidity": 68,
      "wind_speed": 2.7,
      "status": "正常",
      "latitude": 32.042784,
      "longitude": 118.795664,
      "lastUpdate": "2025-10-09T19:57:06.065882",
      "data_source": "Nanjing_Enhanced_Network"
    },
    {
      "id": "NJ_009",
      "city": "Nanjing",
      "city_chinese": "南京",
      "province": "江苏省",
      "district": "建邺区",
      "location": "建邺区-1号站点",
      "pm25": 51.2,
      "aqi": 90,
      "temperature": 18.2,
      "humidity": 64,
      "wind_speed": 0.7,
      "status": "正常",
      "latitude": 32.006842,
      "longitude": 118.725612,
      "lastUpdate": "2025-10-09T19:57:06.065908",
      "data_source": "Nanjing_Enhanced_Network"
    },
    {
      "id": "NJ_010",
      "city": "Nanjing",
      "city_chinese": "南京",
      "province": "江苏省",
      "district": "建邺区",
      "location": "建邺区-2号站点",
      "pm25": 51.6,
      "aqi": 88,
      "temperature": 20.9,
      "humidity": 54,
      "wind_speed": 0.7,
      "status": "正常",
      "latitude": 32.001059,
      "longitude": 118.711457,
      "lastUpdate": "2025-10-09T19:57:06.065913",
      "data_source": "Nanjing_Enhanced_Network"
    },
    {
      "id": "NJ_018",
      "city": "Nanjing",
      "city_chinese": "南京",
      "province": "江苏省",
      "district": "浦口区",
      "location": "浦口区-1号站点",
      "pm25": 53.8,
      "aqi": 87,
      "temperature": 19.9,
      "humidity": 54,
      "wind_speed": 2.2,
      "status": "正常",
      "latitude": 32.065211,
      "longitude": 118.631351,
      "lastUpdate": "2025-10-09T19:57:06.066717",
      "data_source": "Nanjing_Enhanced_Network"
    },
    {
      "id": "NJ_022",
      "city": "Nanjing",
      "city_chinese": "南京",
      "province": "江苏省",
      "district": "栖霞区",
      "location": "栖霞区-1号站点",
      "pm25": 54.5,
      "aqi": 87,
      "temperature": 20.3,
      "humidity": 65,
      "wind_speed": 0.6,
      "status": "正常",
      "latitude": 32.102329,
      "longitude": 118.915094,
      "lastUpdate": "2025-10-09T19:57:06.066740",
      "data_source": "Nanjing_Enhanced_Network"
    },
    {
      "id": "NJ_001",
      "city": "Nanjing",
      "city_chinese": "南京",
      "province": "江苏省",
      "district": "玄武区",
      "location": "玄武区-1号站点",
      "pm25": 49.8,
      "aqi": 84,
      "temperature": 20.6,
      "humidity": 53,
      "wind_speed": 1.4,
      "status": "正常",
      "latitude": 32.056849,
      "longitude": 118.791475,
      "lastUpdate": "2025-10-09T19:57:06.065857",
      "data_source": "Nanjing_Enhanced_Network"
    },
    {
      "id": "NJ_015",
      "city": "Nanjing",
      "city_chinese": "南京",
      "province": "江苏省",
      "district": "鼓楼区",
      "location": "鼓楼区-2号站点",
      "pm25": 53.5,
      "aqi": 84,
      "temperature": 18.1,
      "humidity": 70,
      "wind_speed": 2.1,
      "status": "正常",
      "latitude": 32.061395,
      "longitude": 118.766011,
      "lastUpdate": "2025-10-09T19:57:06.066700",
      "data_source": "Nanjing_Enhanced_Network"
    },
    {
      "id": "NJ_031",
      "city": "Nanjing",
      "city_chinese": "南京",
      "province": "江苏省",
      "district": "江宁区",
      "location": "江宁区-2号站点",
      "pm25": 53.2,
      "aqi": 83,
      "temperature": 19.6,
      "humidity": 62,
      "wind_speed": 1.5,
      "status": "正常",
      "latitude": 31.947493,
      "longitude": 118.830628,
      "lastUpdate": "2025-10-09T19:57:06.066784",
      "data_source": "Nanjing_Enhanced_Network"
    },
    {
      "id": "NJ_027",
      "city": "Nanjing",
      "city_chinese": "南京",
      "province": "江苏省",
      "district": "雨花台区",
      "location": "雨花台区-2号站点",
      "pm25": 53.8,
      "aqi": 82,
      "temperature": 16.2,
      "humidity": 51,
      "wind_speed": 3.3,
      "status": "正常",
      "latitude": 31.996322,
      "longitude": 118.782555,
      "lastUpdate": "2025-10-09T19:57:06.066764",
      "data_source": "Nanjing_Enhanced_Network"
    },
    {
      "id": "NJ_017",
      "city": "Nanjing",
      "city_chinese": "南京",
      "province": "江苏省",
      "district": "鼓楼区",
      "location": "鼓楼区-4号站点",
      "pm25": 51.8,
      "aqi": 81,
      "temperature": 18.6,
      "humidity": 63,
      "wind_speed": 1.3,
      "status": "正常",
      "latitude": 32.057615,
      "longitude": 118.774226,
      "lastUpdate": "2025-10-09T19:57:06.066709",
      "data_source": "Nanjing_Enhanced_Network"
    },
    {
      "id": "NJ_033",
      "city": "Nanjing",
      "city_chinese": "南京",
      "province": "江苏省",
      "district": "江宁区",
      "location": "江宁区-4号站点",
      "pm25": 42.8,
      "aqi": 78,
      "temperature": 19.5,
      "humidity": 67,
      "wind_speed": 1.7,
      "status": "正常",
      "latitude": 31.952604,
      "longitude": 118.832604,
      "lastUpdate": "2025-10-09T19:57:06.066792",
      "data_source": "Nanjing_Enhanced_Network"
    },
    {
      "id": "NJ_013",
      "city": "Nanjing",
      "city_chinese": "南京",
      "province": "江苏省",
      "district": "建邺区",
      "location": "建邺区-5号站点",
      "pm25": 50.3,
      "aqi": 77,
      "temperature": 19.1,
      "humidity": 70,
      "wind_speed": 2.3,
      "status": "正常",
      "latitude": 31.999302,
      "longitude": 118.726954,
      "lastUpdate": "2025-10-09T19:57:06.065926",
      "data_source": "Nanjing_Enhanced_Network"
    },
    {
      "id": "NJ_019",
      "city": "Nanjing",
      "city_chinese": "南京",
      "province": "江苏省",
      "district": "浦口区",
      "location": "浦口区-2号站点",
      "pm25": 45.8,
      "aqi": 77,
      "temperature": 16.7,
      "humidity": 60,
      "wind_speed": 1.9,
      "status": "正常",
      "latitude": 32.059671,
      "longitude": 118.626473,
      "lastUpdate": "2025-10-09T19:57:06.066721",
      "data_source": "Nanjing_Enhanced_Network"
    },
    {
      "id": "NJ_032",
      "city": "Nanjing",
      "city_chinese": "南京",
      "province": "江苏省",
      "district": "江宁区",
      "location": "江宁区-3号站点",
      "pm25": 43.9,
      "aqi": 77,
      "temperature": 17.4,
      "humidity": 54,
      "wind_speed": 3.9,
      "status": "正常",
      "latitude": 31.959072,
      "longitude": 118.836373,
      "lastUpdate": "2025-10-09T19:57:06.066788",
      "data_source": "Nanjing_Enhanced_Network"
    },
    {
      "id": "NJ_045",
      "city": "Nanjing",
      "city_chinese": "南京",
      "province": "江苏省",
      "district": "高淳区",
      "location": "高淳区-2号站点",
      "pm25": 41.9,
      "aqi": 77,
      "temperature": 19.1,
      "humidity": 63,
      "wind_speed": 2.7,
      "status": "正常",
      "latitude": 31.323229,
      "longitude": 118.884881,
      "lastUpdate": "2025-10-09T19:57:06.066846",
      "data_source": "Nanjing_Enhanced_Network"
    },
    {
      "id": "NJ_042",
      "city": "Nanjing",
      "city_chinese": "南京",
      "province": "江苏省",
      "district": "溧水区",
      "location": "溧水区-3号站点",
      "pm25": 41.8,
      "aqi": 76,
      "temperature": 18.9,
      "humidity": 73,
      "wind_speed": 1.3,
      "status": "正常",
      "latitude": 31.65227,
      "longitude": 119.036231,
      "lastUpdate": "2025-10-09T19:57:06.066832",
      "data_source": "Nanjing_Enhanced_Network"
    },
    {
      "id": "NJ_035",
      "city": "Nanjing",
      "city_chinese": "南京",
      "province": "江苏省",
      "district": "江宁区",
      "location": "江宁区-6号站点",
      "pm25": 48.0,
      "aqi": 75,
      "temperature": 18.7,
      "humidity": 70,
      "wind_speed": 0.9,
      "status": "正常",
      "latitude": 31.956562,
      "longitude": 118.846255,
      "lastUpdate": "2025-10-09T19:57:06.066800",
      "data_source": "Nanjing_Enhanced_Network"
    },
    {
      "id": "NJ_040",
      "city": "Nanjing",
      "city_chinese": "南京",
      "province": "江苏省",
      "district": "溧水区",
      "location": "溧水区-1号站点",
      "pm25": 42.5,
      "aqi": 75,
      "temperature": 20.3,
      "humidity": 69,
      "wind_speed": 2.2,
      "status": "正常",
      "latitude": 31.644293,
      "longitude": 119.030754,
      "lastUpdate": "2025-10-09T19:57:06.066822",
      "data_source": "Nanjing_Enhanced_Network"
    },
    {
      "id": "NJ_020",
      "city": "Nanjing",
      "city_chinese": "南京",
      "province": "江苏省",
      "district": "浦口区",
      "location": "浦口区-3号站点",
      "pm25": 44.8,
      "aqi": 74,
      "temperature": 16.8,
      "humidity": 63,
      "wind_speed": 3.9,
      "status": "正常",
      "latitude": 32.051062,
      "longitude": 118.628946,
      "lastUpdate": "2025-10-09T19:57:06.066725",
      "data_source": "Nanjing_Enhanced_Network"
    },
    {
      "id": "NJ_021",
      "city": "Nanjing",
      "city_chinese": "南京",
      "province": "江苏省",
      "district": "浦口区",
      "location": "浦口区-4号站点",
      "pm25": 48.8,
      "aqi": 74,
      "temperature": 19.8,
      "humidity": 71,
      "wind_speed": 2.6,
      "status": "正常",
      "latitude": 32.06571,
      "longitude": 118.632881,
      "lastUpdate": "2025-10-09T19:57:06.066733",
      "data_source": "Nanjing_Enhanced_Network"
    },
    {
      "id": "NJ_011",
      "city": "Nanjing",
      "city_chinese": "南京",
      "province": "江苏省",
      "district": "建邺区",
      "location": "建邺区-3号站点",
      "pm25": 45.0,
      "aqi": 73,
      "temperature": 17.2,
      "humidity": 69,
      "wind_speed": 0.5,
      "status": "正常",
      "latitude": 32.00282,
      "longitude": 118.720688,
      "lastUpdate": "2025-10-09T19:57:06.065918",
      "data_source": "Nanjing_Enhanced_Network"
    },
    {
      "id": "NJ_038",
      "city": "Nanjing",
      "city_chinese": "南京",
      "province": "江苏省",
      "district": "六合区",
      "location": "六合区-3号站点",
      "pm25": 43.5,
      "aqi": 73,
      "temperature": 20.7,
      "humidity": 62,
      "wind_speed": 1.2,
      "status": "正常",
      "latitude": 32.346471,
      "longitude": 118.832208,
      "lastUpdate": "2025-10-09T19:57:06.066813",
      "data_source": "Nanjing_Enhanced_Network"
    },
    {
      "id": "NJ_007",
      "city": "Nanjing",
      "city_chinese": "南京",
      "province": "江苏省",
      "district": "秦淮区",
      "location": "秦淮区-3号站点",
      "pm25": 44.5,
      "aqi": 72,
      "temperature": 18.5,
      "humidity": 59,
      "wind_speed": 1.0,
      "status": "正常",
      "latitude": 32.028151,
      "longitude": 118.789074,
      "lastUpdate": "2025-10-09T19:57:06.065898",
      "data_source": "Nanjing_Enhanced_Network"
    },
    {
      "id": "NJ_041",
      "city": "Nanjing",
      "city_chinese": "南京",
      "province": "江苏省",
      "district": "溧水区",
      "location": "溧水区-2号站点",
      "pm25": 48.0,
      "aqi": 72,
      "temperature": 20.9,
      "humidity": 56,
      "wind_speed": 1.0,
      "status": "正常",
      "latitude": 31.661903,
      "longitude": 119.030521,
      "lastUpdate": "2025-10-09T19:57:06.066827",
      "data_source": "Nanjing_Enhanced_Network"
    },
    {
      "id": "NJ_005",
      "city": "Nanjing",
      "city_chinese": "南京",
      "province": "江苏省",
      "district": "秦淮区",
      "location": "秦淮区-1号站点",
      "pm25": 47.1,
      "aqi": 71,
      "temperature": 18.6,
      "humidity": 63,
      "wind_speed": 1.8,
      "status": "正常",
      "latitude": 32.036347,
      "longitude": 118.789169,
      "lastUpdate": "2025-10-09T19:57:06.065889",
      "data_source": "Nanjing_Enhanced_Network"
    },
    {
      "id": "NJ_026",
      "city": "Nanjing",
      "city_chinese": "南京",
      "province": "江苏省",
      "district": "雨花台区",
      "location": "雨花台区-1号站点",
      "pm25": 42.1,
      "aqi": 71,
      "temperature": 19.2,
      "humidity": 73,
      "wind_speed": 2.5,
      "status": "正常",
      "latitude": 31.997628,
      "longitude": 118.785346,
      "lastUpdate": "2025-10-09T19:57:06.066760",
      "data_source": "Nanjing_Enhanced_Network"
    },
    {
      "id": "NJ_037",
      "city": "Nanjing",
      "city_chinese": "南京",
      "province": "江苏省",
      "district": "六合区",
      "location": "六合区-2号站点",
      "pm25": 45.8,
      "aqi": 69,
      "temperature": 16.5,
      "humidity": 66,
      "wind_speed": 0.7,
      "status": "正常",
      "latitude": 32.332722,
      "longitude": 118.833977,
      "lastUpdate": "2025-10-09T19:57:06.066810",
      "data_source": "Nanjing_Enhanced_Network"
    },
    {
      "id": "NJ_012",
      "city": "Nanjing",
      "city_chinese": "南京",
      "province": "江苏省",
      "district": "建邺区",
      "location": "建邺区-4号站点",
      "pm25": 37.8,
      "aqi": 67,
      "temperature": 18.8,
      "humidity": 56,
      "wind_speed": 3.4,
      "status": "正常",
      "latitude": 31.999002,
      "longitude": 118.726326,
      "lastUpdate": "2025-10-09T19:57:06.065922",
      "data_source": "Nanjing_Enhanced_Network"
    },
    {
      "id": "NJ_034",
      "city": "Nanjing",
      "city_chinese": "南京",
      "province": "江苏省",
      "district": "江宁区",
      "location": "江宁区-5号站点",
      "pm25": 38.7,
      "aqi": 64,
      "temperature": 19.8,
      "humidity": 68,
      "wind_speed": 1.6,
      "status": "正常",
      "latitude": 31.956651,
      "longitude": 118.84099,
      "lastUpdate": "2025-10-09T19:57:06.066796",
      "data_source": "Nanjing_Enhanced_Network"
    },
    {
      "id": "NJ_039",
      "city": "Nanjing",
      "city_chinese": "南京",
      "province": "江苏省",
      "district": "六合区",
      "location": "六合区-4号站点",
      "pm25": 33.4,
      "aqi": 62,
      "temperature": 18.9,
      "humidity": 53,
      "wind_speed": 1.0,
      "status": "正常",
      "latitude": 32.336173,
      "longitude": 118.824197,
      "lastUpdate": "2025-10-09T19:57:06.066817",
      "data_source": "Nanjing_Enhanced_Network"
    },
    {
      "id": "NJ_047",
      "city": "Nanjing",
      "city_chinese": "南京",
      "province": "江苏省",
      "district": "高淳区",
      "location": "高淳区-4号站点",
      "pm25": 41.1,
      "aqi": 62,
      "temperature": 16.1,
      "humidity": 54,
      "wind_speed": 3.3,
      "status": "正常",
      "latitude": 31.326595,
      "longitude": 118.874291,
      "lastUpdate": "2025-10-09T19:57:06.066854",
      "data_source": "Nanjing_Enhanced_Network"
    },
    {
      "id": "NJ_046",
      "city": "Nanjing",
      "city_chinese": "南京",
      "province": "江苏省",
      "district": "高淳区",
      "location": "高淳区-3号站点",
      "pm25": 35.7,
      "aqi": 60,
      "temperature": 16.2,
      "humidity": 59,
      "wind_speed": 2.4,
      "status": "正常",
      "latitude": 31.325644,
      "longitude": 118.88436,
      "lastUpdate": "2025-10-09T19:57:06.066850",
      "data_source": "Nanjing_Enhanced_Network"
    },
    {
      "id": "NJ_036",
      "city": "Nanjing",
      "city_chinese": "南京",
      "province": "江苏省",
      "district": "六合区",
      "location": "六合区-1号站点",
      "pm25": 35.9,
      "aqi": 59,
      "temperature": 19.0,
      "humidity": 52,
      "wind_speed": 2.6,
      "status": "正常",
      "latitude": 32.333333,
      "longitude": 118.836507,
      "lastUpdate": "2025-10-09T19:57:06.066806",
      "data_source": "Nanjing_Enhanced_Network"
    },
    {
      "id": "NJ_044",
      "city": "Nanjing",
      "city_chinese": "南京",
      "province": "江苏省",
      "district": "高淳区",
      "location": "高淳区-1号站点",
      "pm25": 36.4,
      "aqi": 59,
      "temperature": 17.9,
      "humidity": 55,
      "wind_speed": 1.6,
      "status": "正常",
      "latitude": 31.336156,
      "longitude": 118.878476,
      "lastUpdate": "2025-10-09T19:57:06.066841",
      "data_source": "Nanjing_Enhanced_Network"
    },
    {
      "id": "NJ_043",
      "city": "Nanjing",
      "city_chinese": "南京",
      "province": "江苏省",
      "district": "溧水区",
      "location": "溧水区-4号站点",
      "pm25": 38.1,
      "aqi": 56,
      "temperature": 17.0,
      "humidity": 56,
      "wind_speed": 1.9,
      "status": "正常",
      "latitude": 31.655025,
      "longitude": 119.019324,
      "lastUpdate": "2025-10-09T19:57:06.066836",
      "data_source": "Nanjing_Enhanced_Network"
    }
  ]
}